{
  "type": "FeatureCollection",
  "features": [
    {"type": "Feature","properties":{"name":"Los Santos de Maimona","clinicas_privadas":2,"centros_salud_hospitales":1},"geometry":{"type":"Point","coordinates":[-6.340859960430451,38.472201550196395]}},
    {"type": "Feature","properties":{"name":"Plasencia","clinicas_privadas":15,"centros_salud_hospitales":5},"geometry":{"type":"Point","coordinates":[-6.152151026127439,40.016734964757354]}},
    {"type": "Feature","properties":{"name":"Alburquerque","clinicas_privadas":1,"centros_salud_hospitales":1},"geometry":{"type":"Point","coordinates":[-6.965391844959402,39.19358408102603]}},
    {"type": "Feature","properties":{"name":"Almendralejo","clinicas_privadas":10,"centros_salud_hospitales":3},"geometry":{"type":"Point","coordinates":[-6.402657185896558,38.697185193454786]}},
    {"type": "Feature","properties":{"name":"Badajoz","clinicas_privadas":60,"centros_salud_hospitales":15},"geometry":{"type":"Point","coordinates":[-6.9289779117065216,38.870084921325365]}},
    {"type": "Feature","properties":{"name":"Burguillos del Cerro","clinicas_privadas":1,"centros_salud_hospitales":0},"geometry":{"type":"Point","coordinates":[-6.599988182744161,38.385251926837476]}},
    {"type": "Feature","properties":{"name":"Castuera","clinicas_privadas":4,"centros_salud_hospitales":1},"geometry":{"type":"Point","coordinates":[-5.461069374647762,38.79228285815198]}},
    {"type": "Feature","properties":{"name":"Don Benito","clinicas_privadas":12,"centros_salud_hospitales":3},"geometry":{"type":"Point","coordinates":[-5.909703640580842,38.811198907680954]}},
    {"type": "Feature","properties":{"name":"Fregenal de la Sierra","clinicas_privadas":3,"centros_salud_hospitales":1},"geometry":{"type":"Point","coordinates":[-6.583719845829444,38.231038504491906]}},
    {"type": "Feature","properties":{"name":"Fuente de Cantos","clinicas_privadas":3,"centros_salud_hospitales":1},"geometry":{"type":"Point","coordinates":[-6.30167783049605,38.221575426611814]}},
    {"type": "Feature","properties":{"name":"Guareña","clinicas_privadas":2,"centros_salud_hospitales":1},"geometry":{"type":"Point","coordinates":[-6.115931245298884,38.99889255160451]}},
    {"type": "Feature","properties":{"name":"Hornachos","clinicas_privadas":1,"centros_salud_hospitales":1},"geometry":{"type":"Point","coordinates":[-6.067370264544162,38.561206308978434]}},
    {"type": "Feature","properties":{"name":"Jerez de los Caballeros","clinicas_privadas":3,"centros_salud_hospitales":1},"geometry":{"type":"Point","coordinates":[-6.7990726627314615,38.271800559655645]}},
    {"type": "Feature","properties":{"name":"Llerena","clinicas_privadas":3,"centros_salud_hospitales":2},"geometry":{"type":"Point","coordinates":[-6.05813964106685,38.22483934967075]}},
    {"type": "Feature","properties":{"name":"Mérida","clinicas_privadas":21,"centros_salud_hospitales":6},"geometry":{"type":"Point","coordinates":[-6.361949310996662,38.95012443842794]}},
    {"type": "Feature","properties":{"name":"Monesterio","clinicas_privadas":2,"centros_salud_hospitales":1},"geometry":{"type":"Point","coordinates":[-6.233752643672104,38.03967071912632]}},
    {"type": "Feature","properties":{"name":"Montijo","clinicas_privadas":5,"centros_salud_hospitales":1},"geometry":{"type":"Point","coordinates":[-6.56701884823349,38.9639653051724]}},
    {"type": "Feature","properties":{"name":"Olivenza","clinicas_privadas":2,"centros_salud_hospitales":1},"geometry":{"type":"Point","coordinates":[-7.118078017163959,38.66990436032641]}},
    {"type": "Feature","properties":{"name":"Puebla de la Calzada","clinicas_privadas":1,"centros_salud_hospitales":0},"geometry":{"type":"Point","coordinates":[-6.629213695628519,38.87723588162079]}},
    {"type": "Feature","properties":{"name":"Quintana de la Serena","clinicas_privadas":1,"centros_salud_hospitales":0},"geometry":{"type":"Point","coordinates":[-5.7282488056228,38.74739606500392]}},
    {"type":"Feature","properties":{"name":"Ribera del Fresno","clinicas_privadas":2,"centros_salud_hospitales":0},"geometry":{"type":"Point","coordinates":[-6.254211500139295,38.53865223513829]}},
    {"type":"Feature","properties":{"name":"San Vicente de Alcántara","clinicas_privadas":1,"centros_salud_hospitales":1},"geometry":{"type":"Point","coordinates":[-6.958291047457869,39.34543594842968]}},
    {"type":"Feature","properties":{"name":"Santa Amalia","clinicas_privadas":1,"centros_salud_hospitales":1},"geometry":{"type":"Point","coordinates":[-6.044216484369537,38.9916891661809]}},
    {"type":"Feature","properties":{"name":"Talarrubias","clinicas_privadas":2,"centros_salud_hospitales":2},"geometry":{"type":"Point","coordinates":[-5.186404109417454,39.1201470685599]}},
    {"type":"Feature","properties":{"name":"Talavera la Real","clinicas_privadas":2,"centros_salud_hospitales":1},"geometry":{"type":"Point","coordinates":[-6.756633152871349,38.86610178105339]}},
    {"type":"Feature","properties":{"name":"Villafranca de los Barros","clinicas_privadas":1,"centros_salud_hospitales":1},"geometry":{"type":"Point","coordinates":[-6.337890773754304,38.58411311494127]}},
    {"type":"Feature","properties":{"name":"Villalba de los Barros","clinicas_privadas":1,"centros_salud_hospitales":0},"geometry":{"type":"Point","coordinates":[-6.544687801913974,38.60687126124418]}},
    {"type":"Feature","properties":{"name":"Villanueva de la Serena","clinicas_privadas":2,"centros_salud_hospitales":2},"geometry":{"type":"Point","coordinates":[-5.736443205571941,38.99046287157116]}},
    {"type":"Feature","properties":{"name":"Villar del Rey","clinicas_privadas":1,"centros_salud_hospitales":0},"geometry":{"type":"Point","coordinates":[-6.831704299905827,39.11608506490519]}},
    {"type":"Feature","properties":{"name":"Zafra","clinicas_privadas":9,"centros_salud_hospitales":3},"geometry":{"type":"Point","coordinates":[-6.443835181920475,38.43759280793401]}},
    {"type":"Feature","properties":{"name":"Cáceres","clinicas_privadas":39,"centros_salud_hospitales":9},"geometry":{"type":"Point","coordinates":[-6.482559720138206,39.289175180415114]}},
    {"type":"Feature","properties":{"name":"Coria","clinicas_privadas":5,"centros_salud_hospitales":3},"geometry":{"type":"Point","coordinates":[-6.520661761255161,39.97580387592593]}},
    {"type":"Feature","properties":{"name":"Jarandilla de la Vera","clinicas_privadas":1,"centros_salud_hospitales":0},"geometry":{"type":"Point","coordinates":[-5.649067999783525,40.099141052966495]}},
    {"type":"Feature","properties":{"name":"Malpartida de Cáceres","clinicas_privadas":1,"centros_salud_hospitales":0},"geometry":{"type":"Point","coordinates":[-6.4925060437961175,39.439435564014566]}},
    {"type":"Feature","properties":{"name":"Miajadas","clinicas_privadas":3,"centros_salud_hospitales":1},"geometry":{"type":"Point","coordinates":[-5.930760376937972,39.13630807471765]}},
    {"type":"Feature","properties":{"name":"Montehermoso","clinicas_privadas":1,"centros_salud_hospitales":1},"geometry":{"type":"Point","coordinates":[-6.343327796869357,40.07320655919992]}},
    {"type":"Feature","properties":{"name":"Moraleja","clinicas_privadas":2,"centros_salud_hospitales":1},"geometry":{"type":"Point","coordinates":[-6.666600704615988,40.047722852802636]}},
    {"type":"Feature","properties":{"name":"Navaconcejo","clinicas_privadas":1,"centros_salud_hospitales":0},"geometry":{"type":"Point","coordinates":[-5.857528322567282,40.172471071003585]}},
    {"type":"Feature","properties":{"name":"Navalmoral de la Mata","clinicas_privadas":7,"centros_salud_hospitales":2},"geometry":{"type":"Point","coordinates":[-5.555535141426146,39.932039650383246]}},
    {"type":"Feature","properties":{"name":"Trujillo","clinicas_privadas":3,"centros_salud_hospitales":1},"geometry":{"type":"Point","coordinates":[-5.877948601843555,39.4666129205707]}},
    {"type":"Feature","properties":{"name":"Valencia de Alcántara","clinicas_privadas":1,"centros_salud_hospitales":1},"geometry":{"type":"Point","coordinates":[-7.212512045393339,39.44007468981284]}},
    {"type":"Feature","properties":{"name":"Aceuchal","clinicas_privadas":0,"centros_salud_hospitales":1},"geometry":{"type":"Point","coordinates":[-6.4916742676603505,38.66364309599274]}},
    {"type":"Feature","properties":{"name":"Alconchel","clinicas_privadas":0,"centros_salud_hospitales":1},"geometry":{"type":"Point","coordinates":[-7.147641384504724,38.52640367885328]}},
    {"type":"Feature","properties":{"name":"Azuaga","clinicas_privadas":0,"centros_salud_hospitales":1},"geometry":{"type":"Point","coordinates":[-5.693987944953231,38.258073903272404]}},
    {"type":"Feature","properties":{"name":"Calamonte","clinicas_privadas":0,"centros_salud_hospitales":1},"geometry":{"type":"Point","coordinates":[-6.383230600681769,38.87391768903535]}},
    {"type":"Feature","properties":{"name":"Campanario","clinicas_privadas":0,"centros_salud_hospitales":1},"geometry":{"type":"Point","coordinates":[-5.564728188501824,38.87442692199599]}},
    {"type":"Feature","properties":{"name":"Cordobilla de Lácara","clinicas_privadas":0,"centros_salud_hospitales":1},"geometry":{"type":"Point","coordinates":[-6.438962912695906,39.14012283296013]}},
    {"type":"Feature","properties":{"name":"Fuente del Maestre","clinicas_privadas":0,"centros_salud_hospitales":1},"geometry":{"type":"Point","coordinates":[-6.4383885794770865,38.5499434529382]}},
    {"type":"Feature","properties":{"name":"Herrera del Duque","clinicas_privadas":0,"centros_salud_hospitales":1},"geometry":{"type":"Point","coordinates":[-5.011471615705679,39.2233792105059]}},
    {"type":"Feature","properties":{"name":"Navalvillar de Pela","clinicas_privadas":0,"centros_salud_hospitales":1},"geometry":{"type":"Point","coordinates":[-5.48722544023658,39.114011467038395]}},
    {"type":"Feature","properties":{"name":"Oliva de la frontera","clinicas_privadas":0,"centros_salud_hospitales":1},"geometry":{"type":"Point","coordinates":[-6.9184328,38.2769879]}},
    {"type":"Feature","properties":{"name":"Orellana la Vieja","clinicas_privadas":0,"centros_salud_hospitales":1},"geometry":{"type":"Point","coordinates":[-5.551661023894921,39.012657507812534]}},
    {"type":"Feature","properties":{"name":"Pueblonuevo del Guadiana","clinicas_privadas":0,"centros_salud_hospitales":1},"geometry":{"type":"Point","coordinates":[-6.754381211549557,38.92221483805753]}},
    {"type":"Feature","properties":{"name":"La Roca de la Sierra","clinicas_privadas":0,"centros_salud_hospitales":1},"geometry":{"type":"Point","coordinates":[-6.665717953334071,39.08936524247635]}},
    {"type":"Feature","properties":{"name":"Santa Marta","clinicas_privadas":0,"centros_salud_hospitales":1},"geometry":{"type":"Point","coordinates":[-6.642798259187831,38.64494102035053]}},
    {"type":"Feature","properties":{"name":"Siruela","clinicas_privadas":0,"centros_salud_hospitales":1},"geometry":{"type":"Point","coordinates":[-5.10114206963309,38.96999745407104]}},
    {"type":"Feature","properties":{"name":"Valverde de Leganés","clinicas_privadas":0,"centros_salud_hospitales":1},"geometry":{"type":"Point","coordinates":[-6.975180883467658,38.67018961229242]}},
    {"type":"Feature","properties":{"name":"Villanueva del Fresno","clinicas_privadas":0,"centros_salud_hospitales":1},"geometry":{"type":"Point","coordinates":[-7.14833173995443,38.39049394227478]}},
    {"type":"Feature","properties":{"name":"Zalamea de la Serena","clinicas_privadas":0,"centros_salud_hospitales":1},"geometry":{"type":"Point","coordinates":[-5.666497012200249,38.59006723952169]}},
    {"type":"Feature","properties":{"name":"La Zarza","clinicas_privadas":0,"centros_salud_hospitales":1},"geometry":{"type":"Point","coordinates":[-6.215245293225381,38.811110767601534]}},
    {"type":"Feature","properties":{"name":"Ahigal","clinicas_privadas":0,"centros_salud_hospitales":1},"geometry":{"type":"Point","coordinates":[-6.186143507378801,40.1351202885625]}},
    {"type":"Feature","properties":{"name":"Alcántara","clinicas_privadas":0,"centros_salud_hospitales":1},"geometry":{"type":"Point","coordinates":[-6.927960202627594,39.68724291378999]}},
    {"type":"Feature","properties":{"name":"Alcuescar","clinicas_privadas":0,"centros_salud_hospitales":1},"geometry":{"type":"Point","coordinates":[-6.2284451,39.1801212]}},
    {"type":"Feature","properties":{"name":"Aldeanueva del Camino","clinicas_privadas":0,"centros_salud_hospitales":1},"geometry":{"type":"Point","coordinates":[-5.927096018692999,40.26697451743614]}},
    {"type":"Feature","properties":{"name":"Almaraz","clinicas_privadas":0,"centros_salud_hospitales":1},"geometry":{"type":"Point","coordinates":[-5.672913870363938,39.800479051393]}},
    {"type":"Feature","properties":{"name":"Arroyo de la Luz","clinicas_privadas":0,"centros_salud_hospitales":1},"geometry":{"type":"Point","coordinates":[-6.5840241857115585,39.512635875256095]}},
    {"type":"Feature","properties":{"name":"Berzocana","clinicas_privadas":0,"centros_salud_hospitales":1},"geometry":{"type":"Point","coordinates":[-5.508367254629094,39.42545953731562]}},
    {"type":"Feature","properties":{"name":"Bohonal de Ibor","clinicas_privadas":0,"centros_salud_hospitales":1},"geometry":{"type":"Point","coordinates":[-5.457482582869117,39.77886969213932]}},
    {"type":"Feature","properties":{"name":"Cabezuela del Valle","clinicas_privadas":0,"centros_salud_hospitales":1},"geometry":{"type":"Point","coordinates":[-5.805960732796078,40.21014606112297]}},
    {"type":"Feature","properties":{"name":"Casar de Cáceres","clinicas_privadas":0,"centros_salud_hospitales":1},"geometry":{"type":"Point","coordinates":[-6.4575671500051754,39.59465505077363]}},
    {"type":"Feature","properties":{"name":"Casas del Castañar","clinicas_privadas":0,"centros_salud_hospitales":1},"geometry":{"type":"Point","coordinates":[-5.94145735869728,40.09888285388388]}},
    {"type":"Feature","properties":{"name":"Castañar de Ibor","clinicas_privadas":0,"centros_salud_hospitales":1},"geometry":{"type":"Point","coordinates":[-5.424688220981875,39.652400414772494]}},
    {"type":"Feature","properties":{"name":"Ceclavín","clinicas_privadas":0,"centros_salud_hospitales":1},"geometry":{"type":"Point","coordinates":[-6.75261870262655,39.833909168616756]}},
    {"type":"Feature","properties":{"name":"Guadalupe","clinicas_privadas":0,"centros_salud_hospitales":1},"geometry":{"type":"Point","coordinates":[-5.31925695886952,39.44507318206282]}},
    {"type":"Feature","properties":{"name":"Hervas","clinicas_privadas":0,"centros_salud_hospitales":1},"geometry":{"type":"Point","coordinates":[-5.8587431,40.2738554]}},
    {"type":"Feature","properties":{"name":"Hoyos","clinicas_privadas":0,"centros_salud_hospitales":1},"geometry":{"type":"Point","coordinates":[-6.724292114253301,40.16343923572228]}},
    {"type":"Feature","properties":{"name":"Jaraiz de la vera","clinicas_privadas":0,"centros_salud_hospitales":1},"geometry":{"type":"Point","coordinates":[-5.7551824,40.0598888]}},
    {"type":"Feature","properties":{"name":"Logrosán","clinicas_privadas":0,"centros_salud_hospitales":1},"geometry":{"type":"Point","coordinates":[-5.491809537618382,39.27300821831624]}},
    {"type":"Feature","properties":{"name":"Losar de la vera","clinicas_privadas":0,"centros_salud_hospitales":1},"geometry":{"type":"Point","coordinates":[-5.6069514,40.1219442]}},
    {"type":"Feature","properties":{"name":"Mohedas de granadilla","clinicas_privadas":0,"centros_salud_hospitales":1},"geometry":{"type":"Point","coordinates":[-6.2012779,40.2686036]}},
    {"type":"Feature","properties":{"name":"Navas del Madroño","clinicas_privadas":0,"centros_salud_hospitales":1},"geometry":{"type":"Point","coordinates":[-6.650509639303527,39.644176693743056]}},
    {"type":"Feature","properties":{"name":"Nuñomoral","clinicas_privadas":0,"centros_salud_hospitales":1},"geometry":{"type":"Point","coordinates":[-6.247098699029977,40.40810075573082]}},
    {"type":"Feature","properties":{"name":"Pinofranqueado","clinicas_privadas":0,"centros_salud_hospitales":1},"geometry":{"type":"Point","coordinates":[-6.379594206278567,40.34587648356417]}},
    {"type":"Feature","properties":{"name":"Salorino","clinicas_privadas":0,"centros_salud_hospitales":1},"geometry":{"type":"Point","coordinates":[-7.005853792752484,39.47252557126211]}},
    {"type":"Feature","properties":{"name":"Santiago de Alcántara","clinicas_privadas":0,"centros_salud_hospitales":1},"geometry":{"type":"Point","coordinates":[-7.247179028942404,39.62541907306872]}},
    {"type":"Feature","properties":{"name":"Serradilla","clinicas_privadas":0,"centros_salud_hospitales":1},"geometry":{"type":"Point","coordinates":[-6.105216138603178,39.79871498812754]}},
    {"type":"Feature","properties":{"name":"Talavan","clinicas_privadas":0,"centros_salud_hospitales":1},"geometry":{"type":"Point","coordinates":[-6.2812319,39.7156908]}},
    {"type":"Feature","properties":{"name":"Talayuela","clinicas_privadas":0,"centros_salud_hospitales":1},"geometry":{"type":"Point","coordinates":[-5.541198137623346,40.022415355949235]}},
    {"type":"Feature","properties":{"name":"Centro de salud Torre de Don Miguel","clinicas_privadas":0,"centros_salud_hospitales":1},"geometry":{"type":"Point","coordinates":[-6.5762893,40.2233033]}},
    {"type":"Feature","properties":{"name":"Torre de Don Miguel","clinicas_privadas":0,"centros_salud_hospitales":1},"geometry":{"type":"Point","coordinates":[-6.566438548916534,40.221499994003295]}},
    {"type":"Feature","properties":{"name":"Torrejoncillo","clinicas_privadas":0,"centros_salud_hospitales":1},"geometry":{"type":"Point","coordinates":[-6.463213923972304,39.90723063852112]}},
    {"type":"Feature","properties":{"name":"Valdefuentes","clinicas_privadas":0,"centros_salud_hospitales":1},"geometry":{"type":"Point","coordinates":[-6.129324990418258,39.29242350603346]}},
    {"type":"Feature","properties":{"name":"Valverde del Fresno","clinicas_privadas":0,"centros_salud_hospitales":1},"geometry":{"type":"Point","coordinates":[-6.9438171818339365,40.17479116986436]}},
    {"type":"Feature","properties":{"name":"Villanueva de la Vera","clinicas_privadas":0,"centros_salud_hospitales":1},"geometry":{"type":"Point","coordinates":[-5.43260508419252,40.133435981383435]}},
    {"type":"Feature","properties":{"name":"Villar del Pedroso","clinicas_privadas":0,"centros_salud_hospitales":1},"geometry":{"type":"Point","coordinates":[-5.287942087154225,39.60399121195708]}},
    {"type":"Feature","properties":{"name":"Zorita","clinicas_privadas":0,"centros_salud_hospitales":1},"geometry":{"type":"Point","coordinates":[-5.6549369043787525,39.27997401255123]}}
  ]
}
